{"type":"FeatureCollection","features":[{"coordinates":[-86.75,33.57],"p":{"title":"Birmingham","pos":"B","latitude":33.57,"longitude":-86.75,"inside":"TRUE","fips":"01"}},{"coordinates":[-86.586,34.73],"p":{"title":"Huntsville","pos":"L","latitude":34.7303688,"longitude":-86.586,"inside":"TRUE","fips":"01"}},{"coordinates":[-88.043,30.694],"p":{"title":"Mobile","pos":"T","latitude":30.6943566,"longitude":-88.043,"inside":"TRUE","fips":"01"}},{"coordinates":[-86.28,32.35],"p":{"title":"Montgomery","pos":"T","latitude":32.35,"longitude":-86.28,"inside":"TRUE","fips":"01"}},{"coordinates":[-150.02,61.17],"p":{"title":"Anchorage","pos":"R","latitude":61.17,"longitude":-150.02,"inside":"TRUE","fips":"02"}},{"coordinates":[-147.716,64.8377778],"p":{"title":"Fairbanks","pos":"L","latitude":64.8377778,"longitude":-147.716,"inside":"TRUE","fips":"02"}},{"coordinates":[-134.13,58.39],"p":{"title":"Juneau","pos":"L","latitude":58.39,"longitude":-134.13,"inside":"TRUE","fips":"02"}},{"coordinates":[-111.639,35.201],"p":{"title":"Flagstaff","pos":"R","latitude":35.2013516,"longitude":-111.639,"inside":"TRUE","fips":"04"}},{"coordinates":[-112.074,33.448],"p":{"title":"Phoenix","pos":"T","latitude":33.448,"longitude":-112.074,"inside":"TRUE","fips":"04"}},{"coordinates":[-111.761,34.87],"p":{"title":"Sedona","pos":"L","latitude":34.8697395,"longitude":-111.761,"inside":"TRUE","fips":"04"}},{"coordinates":[-110.93,32.12],"p":{"title":"Tucson","pos":"L","latitude":32.12,"longitude":-110.93,"inside":"TRUE","fips":"04"}},{"coordinates":[-114.628,32.693],"p":{"title":"Yuma","pos":"R","latitude":32.6926512,"longitude":-114.628,"inside":"TRUE","fips":"04"}},{"coordinates":[-94.161,36.076],"p":{"title":"Fayetteville","pos":"R","latitude":36.0764,"longitude":-94.161,"inside":"TRUE","fips":"05"}},{"coordinates":[-93,34.5],"p":{"title":"Hot Springs","pos":"L","latitude":34.5,"longitude":-93,"inside":"TRUE","fips":"05"}},{"coordinates":[-90.694,35.828],"p":{"title":"Jonesboro","pos":"B","latitude":35.8281,"longitude":-90.694,"inside":"TRUE","fips":"05"}},{"coordinates":[-92.35,34.72],"p":{"title":"Little Rock","pos":"R","latitude":34.72,"longitude":-92.35,"inside":"TRUE","fips":"05"}},{"coordinates":[-94.058,33.437],"p":{"title":"Texarkana","pos":"R","latitude":33.4372,"longitude":-94.058,"inside":"TRUE","fips":"05"}},{"coordinates":[-118.244,34.052],"p":{"title":"Los Angeles","pos":"R","latitude":34.0522,"longitude":-118.2437,"inside":"TRUE","fips":"06"}},{"coordinates":[-121.494,38.582],"p":{"title":"Sacramento","pos":"T","latitude":38.5816,"longitude":-121.4944,"inside":"TRUE","fips":"06"}},{"coordinates":[-117.161,32.716],"p":{"title":"San Diego","pos":"R","latitude":32.7157,"longitude":-117.1611,"inside":"TRUE","fips":"06"}},{"coordinates":[-122.419,37.775],"p":{"title":"San Francisco","pos":"R","latitude":37.7749,"longitude":-122.4194,"inside":"TRUE","fips":"06"}},{"coordinates":[-121.886,37.338],"p":{"title":"San Jose","pos":"R","latitude":37.3382,"longitude":-121.8863,"inside":"TRUE","fips":"06"}},{"coordinates":[-104.72,38.82],"p":{"title":"Colorado Springs","pos":"L","latitude":38.82,"longitude":-104.72,"inside":"TRUE","fips":"08"}},{"coordinates":[-105.078,40.559],"p":{"title":"Fort Collins","pos":"L","latitude":40.5592,"longitude":-105.078,"inside":"TRUE","fips":"08"}},{"coordinates":[-104.984,39.738],"p":{"title":"Denver","pos":"R","latitude":39.7375,"longitude":-104.984,"inside":"TRUE","fips":"08"}},{"coordinates":[-108.551,39.064],"p":{"title":"Grand Junction","pos":"R","latitude":39.0638705,"longitude":-108.551,"inside":"TRUE","fips":"08"}},{"coordinates":[-73.2,41.2],"p":{"title":"Bridgeport","pos":"T","latitude":41.2,"longitude":-73.2,"inside":"TRUE","fips":"09"}},{"coordinates":[-72.684,41.765],"p":{"title":"Hartford","pos":"L","latitude":41.765,"longitude":-72.684,"inside":"TRUE","fips":"09"}},{"coordinates":[-72.9,41.3],"p":{"title":"New Haven","pos":"R","latitude":41.3,"longitude":-72.9,"inside":"TRUE","fips":"09"}},{"coordinates":[-72.088,41.55],"p":{"title":"Norwich","pos":"L","latitude":41.5503,"longitude":-72.088,"inside":"TRUE","fips":"09"}},{"coordinates":[-73.539,41.053],"p":{"title":"Stamford","pos":"T","latitude":41.0528,"longitude":-73.539,"inside":"TRUE","fips":"09"}},{"coordinates":[-75.52,39.16],"p":{"title":"Dover","pos":"B","latitude":39.16,"longitude":-75.52,"inside":"TRUE","fips":"10"}},{"coordinates":[-75.547,39.746],"p":{"title":"Wilmington","pos":"L","latitude":39.7458,"longitude":-75.547,"inside":"TRUE","fips":"10"}},{"coordinates":[-77.035,38.89],"p":{"title":"Washington","pos":"T","latitude":38.890159,"longitude":-77.035,"inside":"TRUE","fips":"11"}},{"coordinates":[-81.7,30.5],"p":{"title":"Jacksonville","pos":"R","latitude":30.5,"longitude":-81.7,"inside":"TRUE","fips":"12"}},{"coordinates":[-80.28,25.92],"p":{"title":"Miami","pos":"R","latitude":25.92,"longitude":-80.28,"inside":"TRUE","fips":"12"}},{"coordinates":[-81.795,26.142],"p":{"title":"Naples","pos":"L","latitude":26.1420358,"longitude":-81.795,"inside":"TRUE","fips":"12"}},{"coordinates":[-81.32,28.43],"p":{"title":"Orlando","pos":"T","latitude":28.43,"longitude":-81.32,"inside":"TRUE","fips":"12"}},{"coordinates":[-82.6,27.8],"p":{"title":"St. Petersburg","pos":"L","latitude":27.8,"longitude":-82.6,"inside":"TRUE","fips":"12"}},{"coordinates":[-84.28,30.457],"p":{"title":"Tallahassee","pos":"B","latitude":30.457,"longitude":-84.28,"inside":"TRUE","fips":"12"}},{"coordinates":[-87.217,30.421],"p":{"title":"Pensacola","pos":"B","latitude":30.421309,"longitude":-87.217,"inside":"TRUE","fips":"12"}},{"coordinates":[-82.53,27.97],"p":{"title":"Tampa","pos":"R","latitude":27.97,"longitude":-82.53,"inside":"TRUE","fips":"12"}},{"coordinates":[-84.42,33.68],"p":{"title":"Atlanta","pos":"T","latitude":33.68,"longitude":-84.42,"inside":"TRUE","fips":"13"}},{"coordinates":[-82,33.5],"p":{"title":"Augusta","pos":"L","latitude":33.5,"longitude":-82,"inside":"TRUE","fips":"13"}},{"coordinates":[-81.3,32.1],"p":{"title":"Savannah","pos":"L","latitude":32.1,"longitude":-81.3,"inside":"TRUE","fips":"13"}},{"coordinates":[-84.94,32.492],"p":{"title":"Columbus","pos":"R","latitude":32.4922,"longitude":-84.94,"inside":"TRUE","fips":"13"}},{"coordinates":[-157.93,21.35],"p":{"title":"Honolulu","pos":"B","latitude":21.35,"longitude":-157.93,"inside":"TRUE","fips":"15"}},{"coordinates":[-116.226,43.606],"p":{"title":"Boise","pos":"L","latitude":43.606,"longitude":-116.226,"inside":"TRUE","fips":"16"}},{"coordinates":[-116.78,47.693],"p":{"title":"Coeur d'Alene","pos":"L","latitude":47.6928,"longitude":-116.78,"inside":"TRUE","fips":"16"}},{"coordinates":[-112.041,43.493],"p":{"title":"Idaho Falls","pos":"R","latitude":43.4927,"longitude":-112.0408,"inside":"TRUE","fips":"16"}},{"coordinates":[-112.446,42.871],"p":{"title":"Pocatello","pos":"R","latitude":42.8713032,"longitude":-112.446,"inside":"TRUE","fips":"16"}},{"coordinates":[-114.467,42.583],"p":{"title":"Twin Falls","pos":"L","latitude":42.5833,"longitude":-114.467,"inside":"TRUE","fips":"16"}},{"coordinates":[-90.515,41.507],"p":{"title":"Moline","pos":"L","latitude":41.5067003,"longitude":-90.515,"inside":"TRUE","fips":"17"}},{"coordinates":[-89.589,40.694],"p":{"title":"Peoria","pos":"R","latitude":40.6936488,"longitude":-89.589,"inside":"TRUE","fips":"17"}},{"coordinates":[-89.094,42.271],"p":{"title":"Rockford","pos":"L","latitude":42.271131,"longitude":-89.094,"inside":"TRUE","fips":"17"}},{"coordinates":[-89.644,39.781],"p":{"title":"Springfield","pos":"B","latitude":39.781,"longitude":-89.644,"inside":"TRUE","fips":"17"}},{"coordinates":[-88.143,41.868],"p":{"title":"Wheaton","pos":"L","latitude":41.8675195,"longitude":-88.143,"inside":"TRUE","fips":"17"}},{"coordinates":[-87.65,41.9],"p":{"title":"Chicago","pos":"R","latitude":41.9,"longitude":-87.65,"inside":"TRUE","fips":"17"}},{"coordinates":[-86.524,39.172],"p":{"title":"Bloomington","pos":"L","latitude":39.172,"longitude":-86.524,"inside":"TRUE","fips":"18"}},{"coordinates":[-87.544,37.977],"p":{"title":"Evansville","pos":"T","latitude":37.977,"longitude":-87.544,"inside":"TRUE","fips":"18"}},{"coordinates":[-85.12,41.126],"p":{"title":"Fort Wayne","pos":"L","latitude":41.126073,"longitude":-85.12,"inside":"TRUE","fips":"18"}},{"coordinates":[-87.337,41.599],"p":{"title":"Gary","pos":"B","latitude":41.5985,"longitude":-87.337,"inside":"TRUE","fips":"18"}},{"coordinates":[-86.156,39.767],"p":{"title":"Indianapolis","pos":"T","latitude":39.767,"longitude":-86.156,"inside":"TRUE","fips":"18"}},{"coordinates":[-86.251,41.695],"p":{"title":"South Bend","pos":"B","latitude":41.695,"longitude":-86.251,"inside":"TRUE","fips":"18"}},{"coordinates":[-91.666,41.978],"p":{"title":"Cedar Rapids","pos":"T","latitude":41.977879,"longitude":-91.666,"inside":"TRUE","fips":"19"}},{"coordinates":[-90.578,41.534],"p":{"title":"Davenport","pos":"B","latitude":41.533643,"longitude":-90.578,"inside":"TRUE","fips":"19"}},{"coordinates":[-93.617,41.576],"p":{"title":"Des Moines","pos":"B","latitude":41.576,"longitude":-93.617,"inside":"TRUE","fips":"19"}},{"coordinates":[-90.665,42.501],"p":{"title":"Dubuque","pos":"L","latitude":42.500558,"longitude":-90.665,"inside":"TRUE","fips":"19"}},{"coordinates":[-91.53,41.661],"p":{"title":"Iowa City","pos":"L","latitude":41.661129,"longitude":-91.530167,"inside":"TRUE","fips":"19"}},{"coordinates":[-96.4,42.495],"p":{"title":"Sioux City","pos":"R","latitude":42.4949942,"longitude":-96.4,"inside":"TRUE","fips":"19"}},{"coordinates":[-93.62,42.035],"p":{"title":"Ames","pos":"L","latitude":42.034534,"longitude":-93.620369,"inside":"TRUE","fips":"19"}},{"coordinates":[-100.018,37.76],"p":{"title":"Dodge City","pos":"L","latitude":37.7597,"longitude":-100.018,"inside":"TRUE","fips":"20"}},{"coordinates":[-96.67,39.15],"p":{"title":"Manhattan","pos":"L","latitude":39.15,"longitude":-96.67,"inside":"TRUE","fips":"20"}},{"coordinates":[-95.62,39.07],"p":{"title":"Topeka","pos":"T","latitude":39.07,"longitude":-95.62,"inside":"TRUE","fips":"20"}},{"coordinates":[-95.23,38.97],"p":{"title":"Lawrence","pos":"B","latitude":38.97,"longitude":-95.23,"inside":"TRUE","fips":"20"}},{"coordinates":[-86.446,36.972],"p":{"title":"Bowling Green","pos":"R","latitude":36.972,"longitude":-86.446,"inside":"TRUE","fips":"21"}},{"coordinates":[-84.51,39.065],"p":{"title":"Covington","pos":"B","latitude":39.065,"longitude":-84.51,"inside":"TRUE","fips":"21"}},{"coordinates":[-84.495,38.03],"p":{"title":"Lexington","pos":"B","latitude":38.0297,"longitude":-84.4947,"inside":"TRUE","fips":"21"}},{"coordinates":[-85.752,38.257],"p":{"title":"Louisville","pos":"T","latitude":38.25656,"longitude":-85.752,"inside":"TRUE","fips":"21"}},{"coordinates":[-87.107,37.766],"p":{"title":"Owensboro","pos":"L","latitude":37.766,"longitude":-87.107,"inside":"TRUE","fips":"21"}},{"coordinates":[-88.628,37.072],"p":{"title":"Paducah","pos":"L","latitude":37.0722,"longitude":-88.628,"inside":"TRUE","fips":"21"}},{"coordinates":[-84.873,38.193],"p":{"title":"Frankfort","pos":"R","latitude":38.193,"longitude":-84.873,"inside":"TRUE","fips":"21"}},{"coordinates":[-92.5,31.3],"p":{"title":"Alexandria","pos":"L","latitude":31.3,"longitude":-92.5,"inside":"TRUE","fips":"22"}},{"coordinates":[-91.126,30.448],"p":{"title":"Baton Rouge","pos":"T","latitude":30.448,"longitude":-91.126,"inside":"TRUE","fips":"22"}},{"coordinates":[-92.033,30.217],"p":{"title":"Lafayette","pos":"L","latitude":30.2167,"longitude":-92.033,"inside":"TRUE","fips":"22"}},{"coordinates":[-93.2,30.2],"p":{"title":"Lake Charles","pos":"L","latitude":30.2,"longitude":-93.2,"inside":"TRUE","fips":"22"}},{"coordinates":[-90.09,29.96],"p":{"title":"New Orleans","pos":"L","latitude":29.96,"longitude":-90.09,"inside":"TRUE","fips":"22"}},{"coordinates":[-93.75,32.52],"p":{"title":"Shreveport","pos":"T","latitude":32.52,"longitude":-93.75,"inside":"TRUE","fips":"22"}},{"coordinates":[-92.1,32.5],"p":{"title":"Monroe","pos":"B","latitude":32.5,"longitude":-92.1,"inside":"TRUE","fips":"22"}},{"coordinates":[-69.78,44.311],"p":{"title":"Augusta","pos":"T","latitude":44.3106,"longitude":-69.78,"inside":"TRUE","fips":"23"}},{"coordinates":[-68.77,44.804],"p":{"title":"Bangor","pos":"T","latitude":44.8036,"longitude":-68.77,"inside":"TRUE","fips":"23"}},{"coordinates":[-70.193,44.097],"p":{"title":"Lewiston","pos":"L","latitude":44.0975,"longitude":-70.193,"inside":"TRUE","fips":"23"}},{"coordinates":[-70.267,43.667],"p":{"title":"Portland","pos":"L","latitude":43.6667,"longitude":-70.267,"inside":"TRUE","fips":"23"}},{"coordinates":[-76.52,38.98],"p":{"title":"Annapolis","pos":"T","latitude":38.9795,"longitude":-76.52,"inside":"TRUE","fips":"24"}},{"coordinates":[-76.614,39.286],"p":{"title":"Baltimore","pos":"T","latitude":39.28606,"longitude":-76.614,"inside":"TRUE","fips":"24"}},{"coordinates":[-77.72,39.643],"p":{"title":"Hagerstown","pos":"L","latitude":39.6428,"longitude":-77.72,"inside":"TRUE","fips":"24"}},{"coordinates":[-75.593,38.366],"p":{"title":"Salisbury","pos":"L","latitude":38.3658,"longitude":-75.593,"inside":"TRUE","fips":"24"}},{"coordinates":[-71.03,42.37],"p":{"title":"Boston","pos":"L","latitude":42.37,"longitude":-71.03,"inside":"TRUE","fips":"25"}},{"coordinates":[-71.164,42.707],"p":{"title":"Lawrence","pos":"T","latitude":42.7069,"longitude":-71.164,"inside":"TRUE","fips":"25"}},{"coordinates":[-71.316,42.633],"p":{"title":"Lowell","pos":"L","latitude":42.6334247,"longitude":-71.316,"inside":"TRUE","fips":"25"}},{"coordinates":[-70.935,41.636],"p":{"title":"New Bedford","pos":"T","latitude":41.6361,"longitude":-70.935,"inside":"TRUE","fips":"25"}},{"coordinates":[-72.589,42.101],"p":{"title":"Springfield","pos":"L","latitude":42.101025,"longitude":-72.589,"inside":"TRUE","fips":"25"}},{"coordinates":[-71.798,42.263],"p":{"title":"Worcester","pos":"L","latitude":42.2626,"longitude":-71.798,"inside":"TRUE","fips":"25"}},{"coordinates":[-83.889,43.595],"p":{"title":"Bay City","pos":"B","latitude":43.595,"longitude":-83.889,"inside":"TRUE","fips":"26"}},{"coordinates":[-83.02,42.42],"p":{"title":"Detroit","pos":"B","latitude":42.42,"longitude":-83.02,"inside":"TRUE","fips":"26"}},{"coordinates":[-85.671,42.966],"p":{"title":"Grand Rapids","pos":"T","latitude":42.9656,"longitude":-85.671,"inside":"TRUE","fips":"26"}},{"coordinates":[-85.587,42.292],"p":{"title":"Kalamazoo","pos":"L","latitude":42.2917069,"longitude":-85.587,"inside":"TRUE","fips":"26"}},{"coordinates":[-84.553,42.709],"p":{"title":"Lansing","pos":"R","latitude":42.709,"longitude":-84.553,"inside":"TRUE","fips":"26"}},{"coordinates":[-87.407,46.546],"p":{"title":"Marquette","pos":"L","latitude":46.5464,"longitude":-87.407,"inside":"TRUE","fips":"26"}},{"coordinates":[-92.1,46.8],"p":{"title":"Duluth","pos":"L","latitude":46.8,"longitude":-92.1,"inside":"TRUE","fips":"27"}},{"coordinates":[-93.267,44.978],"p":{"title":"Minneapolis","pos":"L","latitude":44.97836,"longitude":-93.267,"inside":"TRUE","fips":"27"}},{"coordinates":[-92.47,44.022],"p":{"title":"Rochester","pos":"L","latitude":44.02163,"longitude":-92.47,"inside":"TRUE","fips":"27"}},{"coordinates":[-94.167,45.55],"p":{"title":"St. Cloud","pos":"T","latitude":45.55,"longitude":-94.167,"inside":"TRUE","fips":"27"}},{"coordinates":[-93.094,44.944],"p":{"title":"Saint Paul","pos":"R","latitude":44.9442,"longitude":-93.094,"inside":"TRUE","fips":"27"}},{"coordinates":[-88.886,30.396],"p":{"title":"Biloxi","pos":"T","latitude":30.39611,"longitude":-88.886,"inside":"TRUE","fips":"28"}},{"coordinates":[-89.288,31.327],"p":{"title":"Hattiesburg","pos":"L","latitude":31.326636,"longitude":-89.288,"inside":"TRUE","fips":"28"}},{"coordinates":[-90.178,32.312],"p":{"title":"Jackson","pos":"B","latitude":32.312176,"longitude":-90.178,"inside":"TRUE","fips":"28"}},{"coordinates":[-88.703,34.257],"p":{"title":"Tupelo","pos":"B","latitude":34.257471,"longitude":-88.703,"inside":"TRUE","fips":"28"}},{"coordinates":[-88.704,32.364],"p":{"title":"Meridian","pos":"T","latitude":32.364132,"longitude":-88.704,"inside":"TRUE","fips":"28"}},{"coordinates":[-89.526,34.36],"p":{"title":"Oxford","pos":"T","latitude":34.35997,"longitude":-89.526,"inside":"TRUE","fips":"28"}},{"coordinates":[-92.33,38.93],"p":{"title":"Columbia","pos":"T","latitude":38.93,"longitude":-92.33,"inside":"TRUE","fips":"29"}},{"coordinates":[-92.19,38.571],"p":{"title":"Jefferson City","pos":"L","latitude":38.571,"longitude":-92.19,"inside":"TRUE","fips":"29"}},{"coordinates":[-94.513,37.084],"p":{"title":"Joplin","pos":"T","latitude":37.084227,"longitude":-94.513,"inside":"TRUE","fips":"29"}},{"coordinates":[-94.578,39.1],"p":{"title":"Kansas City","pos":"T","latitude":39.0997,"longitude":-94.578,"inside":"TRUE","fips":"29"}},{"coordinates":[-93.292,37.209],"p":{"title":"Springfield","pos":"R","latitude":37.2089572,"longitude":-93.292,"inside":"TRUE","fips":"29"}},{"coordinates":[-90.209,38.638],"p":{"title":"St. Louis","pos":"T","latitude":38.638178,"longitude":-90.209,"inside":"TRUE","fips":"29"}},{"coordinates":[-108.501,45.783],"p":{"title":"Billings","pos":"T","latitude":45.7833,"longitude":-108.5007,"inside":"TRUE","fips":"30"}},{"coordinates":[-112.535,46.004],"p":{"title":"Butte","pos":"B","latitude":46.0038,"longitude":-112.5348,"inside":"TRUE","fips":"30"}},{"coordinates":[-114.153,48.424],"p":{"title":"Flathead","pos":"B","latitude":48.4242,"longitude":-114.1532,"inside":"TRUE","fips":"30"}},{"coordinates":[-108.765,48.483],"p":{"title":"Fort Belknap","pos":"L","latitude":48.4825,"longitude":-108.7654,"inside":"TRUE","fips":"30"}},{"coordinates":[-111.301,47.505],"p":{"title":"Great Falls","pos":"R","latitude":47.5053,"longitude":-111.3008,"inside":"TRUE","fips":"30"}},{"coordinates":[-112.091,46.589],"p":{"title":"Helena","pos":"R","latitude":46.5891,"longitude":-112.091,"inside":"TRUE","fips":"30"}},{"coordinates":[-113.994,46.872],"p":{"title":"Missoula","pos":"T","latitude":46.8721,"longitude":-113.994,"inside":"TRUE","fips":"30"}},{"coordinates":[-104.55,48.772],"p":{"title":"Plentywood","pos":"L","latitude":48.772,"longitude":-104.55,"inside":"TRUE","fips":"30"}},{"coordinates":[-98.3,40.9],"p":{"title":"Grand Island","pos":"L","latitude":40.9,"longitude":-98.3,"inside":"TRUE","fips":"31"}},{"coordinates":[-96.75,40.85],"p":{"title":"Lincoln","pos":"B","latitude":40.85,"longitude":-96.75,"inside":"TRUE","fips":"31"}},{"coordinates":[-95.9,41.3],"p":{"title":"Omaha","pos":"L","latitude":41.3,"longitude":-95.9,"inside":"TRUE","fips":"31"}},{"coordinates":[-103.661,41.867],"p":{"title":"Scottsbluff","pos":"R","latitude":41.8672,"longitude":-103.661,"inside":"TRUE","fips":"31"}},{"coordinates":[-119.743,39.148],"p":{"title":"Carson City","pos":"B","latitude":39.148,"longitude":-119.743,"inside":"TRUE","fips":"32"}},{"coordinates":[-114.889,39.247],"p":{"title":"Ely","pos":"T","latitude":39.2474393,"longitude":-114.889,"inside":"TRUE","fips":"32"}},{"coordinates":[-115.14,36.17],"p":{"title":"Las Vegas","pos":"T","latitude":36.1699,"longitude":-115.1398,"inside":"TRUE","fips":"32"}},{"coordinates":[-119.814,39.53],"p":{"title":"Reno","pos":"T","latitude":39.5296,"longitude":-119.8138,"inside":"TRUE","fips":"32"}},{"coordinates":[-71.185,44.468],"p":{"title":"Berlin","pos":"R","latitude":44.468,"longitude":-71.185,"inside":"TRUE","fips":"33"}},{"coordinates":[-71.537,43.207],"p":{"title":"Concord","pos":"T","latitude":43.207,"longitude":-71.537,"inside":"TRUE","fips":"33"}},{"coordinates":[-71.12,43.979],"p":{"title":"Conway","pos":"R","latitude":43.979,"longitude":-71.12,"inside":"TRUE","fips":"33"}},{"coordinates":[-71.464,42.991],"p":{"title":"Manchester","pos":"L","latitude":42.9912,"longitude":-71.464,"inside":"TRUE","fips":"33"}},{"coordinates":[-71.464,42.758],"p":{"title":"Nashua","pos":"R","latitude":42.7581,"longitude":-71.464,"inside":"TRUE","fips":"33"}},{"coordinates":[-70.772,43.071],"p":{"title":"Portsmouth","pos":"R","latitude":43.0705,"longitude":-70.772,"inside":"TRUE","fips":"33"}},{"coordinates":[-72.289,43.702],"p":{"title":"Hanover","pos":"L","latitude":43.7022,"longitude":-72.289,"inside":"TRUE","fips":"33"}},{"coordinates":[-74.451,39.377],"p":{"title":"Atlantic City","pos":"L","latitude":39.3773,"longitude":-74.451,"inside":"TRUE","fips":"34"}},{"coordinates":[-74.173,40.724],"p":{"title":"Newark","pos":"L","latitude":40.7242,"longitude":-74.173,"inside":"TRUE","fips":"34"}},{"coordinates":[-75.107,39.937],"p":{"title":"Camden","pos":"R","latitude":39.9368,"longitude":-75.107,"inside":"TRUE","fips":"34"}},{"coordinates":[-74.071,40.714],"p":{"title":"Jersey City","pos":"R","latitude":40.714,"longitude":-74.071,"inside":"TRUE","fips":"34"}},{"coordinates":[-74.764,40.223],"p":{"title":"Trenton","pos":"T","latitude":40.223,"longitude":-74.764,"inside":"TRUE","fips":"34"}},{"coordinates":[-106.6,35.05],"p":{"title":"Albuquerque","pos":"B","latitude":35.05,"longitude":-106.6,"inside":"TRUE","fips":"35"}},{"coordinates":[-106.779,32.314],"p":{"title":"Las Cruces","pos":"T","latitude":32.3144,"longitude":-106.779,"inside":"TRUE","fips":"35"}},{"coordinates":[-105.954,35.678],"p":{"title":"Santa Fe","pos":"L","latitude":35.678,"longitude":-105.954,"inside":"TRUE","fips":"35"}},{"coordinates":[-73.799,42.665],"p":{"title":"Albany","pos":"L","latitude":42.665,"longitude":-73.799,"inside":"TRUE","fips":"36"}},{"coordinates":[-75.912,42.102],"p":{"title":"Binghamton","pos":"L","latitude":42.1022,"longitude":-75.912,"inside":"TRUE","fips":"36"}},{"coordinates":[-78.73,42.93],"p":{"title":"Buffalo","pos":"L","latitude":42.93,"longitude":-78.73,"inside":"TRUE","fips":"36"}},{"coordinates":[-73.98,40.77],"p":{"title":"New York","pos":"T","latitude":40.77,"longitude":-73.98,"inside":"TRUE","fips":"36"}},{"coordinates":[-77.67,43.12],"p":{"title":"Rochester","pos":"T","latitude":43.12,"longitude":-77.67,"inside":"TRUE","fips":"36"}},{"coordinates":[-76.144,43.047],"p":{"title":"Syracuse","pos":"R","latitude":43.0469,"longitude":-76.144,"inside":"TRUE","fips":"36"}},{"coordinates":[-75.276,43.095],"p":{"title":"Utica","pos":"R","latitude":43.094722,"longitude":-75.275833,"inside":"TRUE","fips":"3622"}},{"coordinates":[-75.463,43.219],"p":{"title":"Rome","pos":"L","latitude":43.219444,"longitude":-75.463333,"inside":"TRUE","fips":"3622"}},{"coordinates":[-82.556,35.58],"p":{"title":"Asheville","pos":"L","latitude":35.58,"longitude":-82.556,"inside":"TRUE","fips":"37"}},{"coordinates":[-78.643,35.78],"p":{"title":"Raleigh","pos":"R","latitude":35.7797,"longitude":-78.643,"inside":"TRUE","fips":"37"}},{"coordinates":[-77.912,34.223],"p":{"title":"Wilmington","pos":"L","latitude":34.2233,"longitude":-77.912,"inside":"TRUE","fips":"37"}},{"coordinates":[-80.243,36.095],"p":{"title":"Winston-Salem","pos":"L","latitude":36.0948,"longitude":-80.243,"inside":"TRUE","fips":"37"}},{"coordinates":[-80.846,35.231],"p":{"title":"Charlotte","pos":"R","latitude":35.231,"longitude":-80.846,"inside":"TRUE","fips":"37"}},{"coordinates":[-78.907,35.977],"p":{"title":"Durham","pos":"T","latitude":35.977,"longitude":-78.907,"inside":"TRUE","fips":"37"}},{"coordinates":[-78.885,35.054],"p":{"title":"Fayetteville","pos":"R","latitude":35.054,"longitude":-78.885,"inside":"TRUE","fips":"37"}},{"coordinates":[-100.784,46.808],"p":{"title":"Bismarck","pos":"T","latitude":46.8083,"longitude":-100.7837,"inside":"TRUE","fips":"38"}},{"coordinates":[-96.79,46.877],"p":{"title":"Fargo","pos":"L","latitude":46.8771863,"longitude":-96.79,"inside":"TRUE","fips":"38"}},{"coordinates":[-97.033,47.925],"p":{"title":"Grand Forks","pos":"L","latitude":47.9252568,"longitude":-97.033,"inside":"TRUE","fips":"38"}},{"coordinates":[-101.296,48.233],"p":{"title":"Minot","pos":"L","latitude":48.2325095,"longitude":-101.296,"inside":"TRUE","fips":"38"}},{"coordinates":[-81.685,41.499],"p":{"title":"Cleveland","pos":"T","latitude":41.499114,"longitude":-81.685,"inside":"TRUE","fips":"39"}},{"coordinates":[-81.516,41.085],"p":{"title":"Akron","pos":"B","latitude":41.084846,"longitude":-81.516,"inside":"TRUE","fips":"39"}},{"coordinates":[-83.001,39.962],"p":{"title":"Columbus","pos":"T","latitude":39.962218,"longitude":-83.001,"inside":"TRUE","fips":"39"}},{"coordinates":[-83.578,41.653],"p":{"title":"Toledo","pos":"B","latitude":41.65292,"longitude":-83.578,"inside":"TRUE","fips":"39"}},{"coordinates":[-84.454,39.161],"p":{"title":"Cincinnati","pos":"T","latitude":39.160657,"longitude":-84.454,"inside":"TRUE","fips":"39"}},{"coordinates":[-80.649,41.096],"p":{"title":"Youngstown","pos":"T","latitude":41.096258,"longitude":-80.649,"inside":"TRUE","fips":"39"}},{"coordinates":[-98.39,34.609],"p":{"title":"Lawton","pos":"L","latitude":34.6086854,"longitude":-98.39,"inside":"TRUE","fips":"40"}},{"coordinates":[-97.55,35.467],"p":{"title":"Oklahoma City","pos":"T","latitude":35.467,"longitude":-97.55,"inside":"TRUE","fips":"40"}},{"coordinates":[-95.9,36.2],"p":{"title":"Tulsa","pos":"L","latitude":36.2,"longitude":-95.9,"inside":"TRUE","fips":"40"}},{"coordinates":[-123.081,44.045],"p":{"title":"Eugene","pos":"B","latitude":44.0446,"longitude":-123.081,"inside":"TRUE","fips":"41"}},{"coordinates":[-122.869,42.328],"p":{"title":"Medford","pos":"R","latitude":42.32789,"longitude":-122.869,"inside":"TRUE","fips":"41"}},{"coordinates":[-118.812,45.671],"p":{"title":"Pendleton","pos":"B","latitude":45.671,"longitude":-118.812,"inside":"TRUE","fips":"41"}},{"coordinates":[-122.669,45.523],"p":{"title":"Portland","pos":"L","latitude":45.523,"longitude":-122.669,"inside":"TRUE","fips":"41"}},{"coordinates":[-123.022,44.924],"p":{"title":"Salem","pos":"R","latitude":44.924,"longitude":-123.022,"inside":"TRUE","fips":"41"}},{"coordinates":[-122.431,45.498],"p":{"title":"Gresham","pos":"R","latitude":45.498,"longitude":-122.431,"inside":"TRUE","fips":"41"}},{"coordinates":[-79.831,41.398],"p":{"title":"Franklin","pos":"B","latitude":41.3978,"longitude":-79.8314,"inside":"TRUE","fips":"42"}},{"coordinates":[-80.085,42.128],"p":{"title":"Erie","pos":"B","latitude":42.12806,"longitude":-80.085,"inside":"TRUE","fips":"42"}},{"coordinates":[-75.491,40.608],"p":{"title":"Allentown","pos":"L","latitude":40.607787,"longitude":-75.491,"inside":"TRUE","fips":"42"}},{"coordinates":[-76.884,40.276],"p":{"title":"Harrisburg","pos":"T","latitude":40.276,"longitude":-76.884,"inside":"TRUE","fips":"42"}},{"coordinates":[-75.164,39.952],"p":{"title":"Philadelphia","pos":"L","latitude":39.9524,"longitude":-75.164,"inside":"TRUE","fips":"42"}},{"coordinates":[-75.928,40.335],"p":{"title":"Reading","pos":"R","latitude":40.335354,"longitude":-75.928,"inside":"TRUE","fips":"42"}},{"coordinates":[-75.663,41.409],"p":{"title":"Scranton","pos":"L","latitude":41.409233,"longitude":-75.663,"inside":"TRUE","fips":"42"}},{"coordinates":[-80.01,40.442],"p":{"title":"Pittsburgh","pos":"R","latitude":40.4423,"longitude":-80.01,"inside":"TRUE","fips":"42"}},{"coordinates":[-71.313,41.488],"p":{"title":"Newport","pos":"L","latitude":41.488,"longitude":-71.313,"inside":"TRUE","fips":"44"}},{"coordinates":[-71.416,41.826],"p":{"title":"Providence","pos":"L","latitude":41.8265,"longitude":-71.416,"inside":"TRUE","fips":"44"}},{"coordinates":[-79.931,32.777],"p":{"title":"Charleston","pos":"R","latitude":32.7765656,"longitude":-79.931,"inside":"TRUE","fips":"45"}},{"coordinates":[-80.886,34.039],"p":{"title":"Columbia","pos":"T","latitude":34.039,"longitude":-80.886,"inside":"TRUE","fips":"45"}},{"coordinates":[-82.394,34.853],"p":{"title":"Greenville","pos":"L","latitude":34.8526176,"longitude":-82.394,"inside":"TRUE","fips":"45"}},{"coordinates":[-78.887,33.689],"p":{"title":"Myrtle Beach","pos":"B","latitude":33.6890603,"longitude":-78.887,"inside":"TRUE","fips":"45"}},{"coordinates":[-81.025,34.924],"p":{"title":"Rock Hill","pos":"R","latitude":34.924433,"longitude":-81.025407,"inside":"TRUE","fips":"45"}},{"coordinates":[-101.151,45.042],"p":{"title":"Cheyenne River","pos":"L","latitude":45.042478,"longitude":-101.151,"inside":"TRUE","fips":"46"}},{"coordinates":[-99.141,44.127],"p":{"title":"Crow Creek","pos":"R","latitude":44.127028,"longitude":-99.141,"inside":"TRUE","fips":"46"}},{"coordinates":[-97.053,45.76],"p":{"title":"Lake Traverse","pos":"L","latitude":45.759859,"longitude":-97.053,"inside":"TRUE","fips":"46"}},{"coordinates":[-99.998,44.245],"p":{"title":"Lower Brule","pos":"L","latitude":44.245199,"longitude":-99.998,"inside":"TRUE","fips":"46"}},{"coordinates":[-101.008,43.261],"p":{"title":"Rosebud","pos":"T","latitude":43.261206,"longitude":-101.008,"inside":"TRUE","fips":"46"}},{"coordinates":[-101.085,45.882],"p":{"title":"Standing Rock","pos":"B","latitude":45.882361,"longitude":-101.085,"inside":"TRUE","fips":"46"}},{"coordinates":[-103.518,44.404],"p":{"title":"Sturgis","pos":"R","latitude":44.4042,"longitude":-103.518,"inside":"TRUE","fips":"46"}},{"coordinates":[-99.097,43.173],"p":{"title":"Yankton","pos":"L","latitude":43.173135,"longitude":-99.097,"inside":"TRUE","fips":"46"}},{"coordinates":[-100.322,44.372],"p":{"title":"Pierre","pos":"T","latitude":44.372,"longitude":-100.322,"inside":"TRUE","fips":"46"}},{"coordinates":[-96.729,43.545],"p":{"title":"Sioux Falls","pos":"L","latitude":43.545,"longitude":-96.729,"inside":"TRUE","fips":"46"}},{"coordinates":[-103.231,44.081],"p":{"title":"Rapid City","pos":"B","latitude":44.0805,"longitude":-103.231,"inside":"TRUE","fips":"46"}},{"coordinates":[-85.3,35],"p":{"title":"Chattanooga","pos":"T","latitude":35,"longitude":-85.3,"inside":"TRUE","fips":"47"}},{"coordinates":[-83.9,36],"p":{"title":"Knoxville","pos":"L","latitude":36,"longitude":-83.9,"inside":"TRUE","fips":"47"}},{"coordinates":[-89.87,35.35],"p":{"title":"Memphis","pos":"R","latitude":35.35,"longitude":-89.87,"inside":"TRUE","fips":"47"}},{"coordinates":[-86.784,36.171],"p":{"title":"Nashville","pos":"L","latitude":36.171,"longitude":-86.784,"inside":"TRUE","fips":"47"}},{"coordinates":[-97.745,30.27],"p":{"title":"Austin","pos":"T","latitude":30.269569,"longitude":-97.745,"inside":"TRUE","fips":"48"}},{"coordinates":[-106.491,31.763],"p":{"title":"El Paso","pos":"R","latitude":31.763211,"longitude":-106.491,"inside":"TRUE","fips":"48"}},{"coordinates":[-95.169,29.758],"p":{"title":"Houston","pos":"B","latitude":29.758288,"longitude":-95.169,"inside":"TRUE","fips":"48"}},{"coordinates":[-99.504,27.514],"p":{"title":"Laredo","pos":"L","latitude":27.514122,"longitude":-99.504,"inside":"TRUE","fips":"48"}},{"coordinates":[-98.494,29.425],"p":{"title":"San Antonio","pos":"L","latitude":29.42504,"longitude":-98.494,"inside":"TRUE","fips":"48"}},{"coordinates":[-97.394,27.803],"p":{"title":"Corpus Christi","pos":"R","latitude":27.802799,"longitude":-97.394,"inside":"TRUE","fips":"48"}},{"coordinates":[-96.797,32.781],"p":{"title":"Dallas","pos":"R","latitude":32.780573,"longitude":-96.797,"inside":"TRUE","fips":"48"}},{"coordinates":[-101.855,33.578],"p":{"title":"Lubbock","pos":"R","latitude":33.577809,"longitude":-101.855,"inside":"TRUE","fips":"48"}},{"coordinates":[-111.661,40.244],"p":{"title":"Provo","pos":"L","latitude":40.2444,"longitude":-111.661,"inside":"TRUE","fips":"49"}},{"coordinates":[-111.929,40.777],"p":{"title":"Salt Lake City","pos":"T","latitude":40.777,"longitude":-111.929,"inside":"TRUE","fips":"49"}},{"coordinates":[-113.578,37.095],"p":{"title":"St. George","pos":"T","latitude":37.0953,"longitude":-113.578,"inside":"TRUE","fips":"49"}},{"coordinates":[-73.208,42.891],"p":{"title":"Bennington","pos":"R","latitude":42.8911,"longitude":-73.208,"inside":"TRUE","fips":"50"}},{"coordinates":[-72.572,44.263],"p":{"title":"Montpelier","pos":"B","latitude":44.26274,"longitude":-72.572,"inside":"TRUE","fips":"50"}},{"coordinates":[-73.211,44.476],"p":{"title":"Burlington","pos":"R","latitude":44.47586,"longitude":-73.211,"inside":"TRUE","fips":"50"}},{"coordinates":[-72.972,43.609],"p":{"title":"Rutland","pos":"T","latitude":43.6086,"longitude":-72.972,"inside":"TRUE","fips":"50"}},{"coordinates":[-77.108,38.88],"p":{"title":"Arlington","pos":"R","latitude":38.8803,"longitude":-77.108,"inside":"TRUE","fips":"51"}},{"coordinates":[-77.306,38.846],"p":{"title":"Fairfax","pos":"L","latitude":38.8462236,"longitude":-77.306,"inside":"TRUE","fips":"51"}},{"coordinates":[-76.274,36.855],"p":{"title":"Norfolk","pos":"T","latitude":36.854685,"longitude":-76.274,"inside":"TRUE","fips":"51"}},{"coordinates":[-77.442,37.539],"p":{"title":"Richmond","pos":"L","latitude":37.5393,"longitude":-77.442,"inside":"TRUE","fips":"51"}},{"coordinates":[-79.941,37.271],"p":{"title":"Roanoke","pos":"B","latitude":37.2709704,"longitude":-79.941,"inside":"TRUE","fips":"51"}},{"coordinates":[-76.03,36.76],"p":{"title":"Virginia Beach","pos":"B","latitude":36.76,"longitude":-76.03,"inside":"TRUE","fips":"51"}},{"coordinates":[-122.53,48.8],"p":{"title":"Bellingham","pos":"R","latitude":48.8,"longitude":-122.53,"inside":"TRUE","fips":"53"}},{"coordinates":[-122.897,47.039],"p":{"title":"Olympia","pos":"B","latitude":47.039,"longitude":-122.897,"inside":"TRUE","fips":"53"}},{"coordinates":[-122.347,47.616],"p":{"title":"Seattle","pos":"L","latitude":47.61649,"longitude":-122.347,"inside":"TRUE","fips":"53"}},{"coordinates":[-117.53,47.63],"p":{"title":"Spokane","pos":"L","latitude":47.63,"longitude":-117.53,"inside":"TRUE","fips":"53"}},{"coordinates":[-122.58,47.27],"p":{"title":"Tacoma","pos":"R","latitude":47.27,"longitude":-122.58,"inside":"TRUE","fips":"53"}},{"coordinates":[-122.124,47.669],"p":{"title":"Redmond","pos":"R","latitude":47.669414,"longitude":-122.124,"inside":"TRUE","fips":"53"}},{"coordinates":[-81.183,37.78],"p":{"title":"Beckley","pos":"L","latitude":37.7797,"longitude":-81.183,"inside":"TRUE","fips":"54"}},{"coordinates":[-80.693,40.077],"p":{"title":"Wheeling","pos":"L","latitude":40.07709,"longitude":-80.693,"inside":"TRUE","fips":"54"}},{"coordinates":[-81.636,38.353],"p":{"title":"Charleston","pos":"R","latitude":38.3533,"longitude":-81.636,"inside":"TRUE","fips":"54"}},{"coordinates":[-82.424,38.421],"p":{"title":"Huntington","pos":"T","latitude":38.4208,"longitude":-82.424,"inside":"TRUE","fips":"54"}},{"coordinates":[-91.498,44.811],"p":{"title":"Eau Claire","pos":"B","latitude":44.811023,"longitude":-91.498,"inside":"TRUE","fips":"55"}},{"coordinates":[-88.015,44.518],"p":{"title":"Green Bay","pos":"L","latitude":44.517941,"longitude":-88.015,"inside":"TRUE","fips":"55"}},{"coordinates":[-89.401,43.073],"p":{"title":"Madison","pos":"T","latitude":43.073045,"longitude":-89.401,"inside":"TRUE","fips":"55"}},{"coordinates":[-87.904,43.038],"p":{"title":"Milwaukee","pos":"B","latitude":43.037992,"longitude":-87.904,"inside":"TRUE","fips":"55"}},{"coordinates":[-88.543,44.025],"p":{"title":"Oshkosh","pos":"B","latitude":44.02472,"longitude":-88.543,"inside":"TRUE","fips":"55"}},{"coordinates":[-89.647,44.963],"p":{"title":"Wausau","pos":"T","latitude":44.962589,"longitude":-89.647,"inside":"TRUE","fips":"55"}},{"coordinates":[-91.242,43.802],"p":{"title":"La Crosse","pos":"L","latitude":43.8019,"longitude":-91.242,"inside":"TRUE","fips":"55"}},{"coordinates":[-106.325,42.85],"p":{"title":"Casper","pos":"T","latitude":42.8501,"longitude":-106.3252,"inside":"TRUE","fips":"56"}},{"coordinates":[-104.792,41.145],"p":{"title":"Cheyenne","pos":"L","latitude":41.145,"longitude":-104.792,"inside":"TRUE","fips":"56"}},{"coordinates":[-105.502,44.291],"p":{"title":"Gillette","pos":"L","latitude":44.2910915,"longitude":-105.502,"inside":"TRUE","fips":"56"}},{"coordinates":[-108.212,43.646],"p":{"title":"Thermopolis","pos":"T","latitude":43.6460672,"longitude":-108.212,"inside":"TRUE","fips":"56"}},{"coordinates":[-110.762,43.48],"p":{"title":"Jackson","pos":"R","latitude":43.4799291,"longitude":-110.762,"inside":"TRUE","fips":"56"}}]}